City_ID,City,Lat,Lng,Max Temp,Humidity,Cloudiness,Wind Speed,Country,Date
0,luderitz,-26.6481,15.1594,66.27,76,96,19.19,NA,1675624461
1,avera,33.194,-82.5271,64.38,61,100,5.01,US,1675624462
2,la rioja,42.25,-2.5,37.18,91,44,5.73,ES,1675624462
3,ancud,-41.8697,-73.8203,64.58,73,23,11.34,CL,1675624463
4,manta,-0.95,-80.7333,83.98,74,75,6.91,EC,1675624464
5,klyuchi,52.2667,79.1667,10.56,97,100,4.56,RU,1675624189
6,port blair,11.6667,92.75,78.91,80,61,5.35,IN,1675624467
7,mangan,27.5167,88.5333,58.32,60,93,2.71,IN,1675624468
8,hobart,-42.8794,147.3294,58.86,74,90,13.8,AU,1675624387
9,thunder bay,48.4001,-89.3168,13.91,57,100,5.75,CA,1675624454
10,albany,42.6001,-73.9662,42.73,45,100,3.0,US,1675624471
11,new norfolk,-42.7826,147.0587,58.5,64,100,1.99,AU,1675624471
12,tasiilaq,65.6145,-37.6368,24.96,87,100,5.03,GL,1675624471
13,leningradskiy,69.3833,178.4167,-23.85,98,100,4.52,RU,1675624472
14,male,4.1748,73.5089,82.35,74,75,14.97,MV,1675624472
15,ushuaia,-54.8,-68.3,49.62,57,40,29.93,AR,1675624220
16,rikitea,-23.1203,-134.9692,78.76,75,12,15.79,PF,1675624472
17,bria,6.5423,21.9863,80.24,15,4,1.39,CF,1675624473
18,pevek,69.7008,170.3133,-38.22,100,76,2.44,RU,1675624474
19,klaksvik,62.2266,-6.589,47.32,95,100,34.27,FO,1675624474
20,dingli,35.8614,14.3822,48.36,50,20,11.5,MT,1675624474
21,port alfred,-33.5906,26.891,71.19,93,6,3.0,ZA,1675624475
22,tuatapere,-46.1333,167.6833,57.88,92,93,14.43,NZ,1675624305
23,hithadhoo,-0.6,73.0833,80.96,71,92,10.92,MV,1675624475
24,novokayakent,42.3937,47.9861,38.17,84,100,6.69,RU,1675624476
25,tuktoyaktuk,69.4541,-133.0374,-39.12,100,63,5.23,CA,1675624476
26,yerbogachen,61.2767,108.0108,-29.56,100,95,2.39,RU,1675624378
27,butaritari,3.0707,172.7902,80.49,82,100,19.24,KI,1675624477
28,carnarvon,-24.8667,113.6333,76.87,76,1,13.89,AU,1675624477
29,coos bay,43.3665,-124.2179,50.14,93,100,11.5,US,1675624477
30,kapaa,22.0752,-159.319,75.52,91,75,17.27,US,1675624477
31,georgetown,5.4112,100.3354,76.95,94,20,0.0,MY,1675624255
32,vaini,-21.2,-175.2,77.16,83,75,1.14,TO,1675624478
33,asfi,32.2994,-9.2372,57.94,63,0,8.16,MA,1675624478
34,broome,42.2506,-75.833,44.71,51,0,11.5,US,1675624235
35,pisco,-13.7,-76.2167,77.05,78,0,10.36,PE,1675624479
36,sao joao da barra,-21.6403,-41.0511,91.49,81,18,13.94,BR,1675624479
37,miri,4.4148,114.0089,74.95,92,100,3.6,MY,1675624479
38,asau,46.4333,26.4,24.28,93,100,7.7,RO,1675624480
39,caramay,10.1815,119.236,76.41,91,59,4.29,PH,1675624480
40,fairbanks,64.8378,-147.7164,-0.4,78,0,8.05,US,1675624239
41,kisangani,0.5167,25.2,77.02,53,8,2.48,CD,1675624481
42,prince rupert,54.3161,-130.3201,41.09,71,100,6.91,CA,1675624481
43,santa lucia,27.9117,-15.5407,56.77,59,40,8.05,ES,1675624482
44,hermanus,-34.4187,19.2345,68.81,81,84,9.44,ZA,1675624484
45,hasaki,35.7333,140.8333,34.2,80,98,9.33,JP,1675624485
46,yumen,40.2833,97.2,25.52,40,11,9.13,CN,1675624486
47,hilo,19.7297,-155.09,77.29,91,75,6.91,US,1675624314
48,ikornnes,62.3873,6.557,43.09,93,100,5.01,NO,1675624486
49,bredasdorp,-34.5322,20.0403,70.92,76,100,7.27,ZA,1675624487
50,barrow,71.2906,-156.7887,-16.58,69,100,6.91,US,1675624487
51,paamiut,61.994,-49.6678,16.81,86,100,20.54,GL,1675624487
52,cidreira,-30.1811,-50.2056,82.13,53,1,15.03,BR,1675624488
53,cabo san lucas,22.8909,-109.9124,84.61,52,0,3.44,MX,1675624339
54,yellowknife,62.456,-114.3525,-6.88,81,100,7.72,CA,1675624488
55,najran,17.4924,44.1277,66.97,29,100,2.95,SA,1675624488
56,husavik,66.0449,-17.3389,45.36,80,100,35.12,IS,1675624489
57,guerrero,17.6667,-100.0,83.98,27,1,5.5,MX,1675624489
58,faanui,-16.4833,-151.75,81.28,75,8,14.56,PF,1675624490
59,los llanos de aridane,28.6585,-17.9182,58.75,75,75,11.5,ES,1675624490
60,bluff,-46.6,168.3333,58.8,87,79,25.23,NZ,1675624490
61,linxia,35.6003,103.2064,25.88,43,19,2.1,CN,1675624491
62,mahebourg,-20.4081,57.7,80.26,83,40,9.22,MU,1675624491
63,dawei,14.0833,98.2,72.88,92,16,3.04,MM,1675624491
64,caravelas,-17.7125,-39.2481,83.89,66,0,12.71,BR,1675624480
65,sur,22.5667,59.5289,71.19,73,1,6.53,OM,1675624327
66,mataura,-46.1927,168.8643,56.98,95,100,12.64,NZ,1675624492
67,ponta do sol,32.6667,-17.1,62.13,49,70,4.41,PT,1675624493
68,saint george,37.1041,-113.5841,59.43,35,0,3.44,US,1675624408
69,lebu,-37.6167,-73.65,65.7,76,6,20.27,CL,1675624493
70,amuntai,-2.4177,115.2494,72.93,95,100,1.39,ID,1675624494
71,bandarbeyla,9.4942,50.8122,75.52,73,75,17.07,SO,1675624494
72,saskylakh,71.9167,114.0833,-41.35,100,100,3.87,RU,1675624494
73,punta arenas,-53.15,-70.9167,55.51,38,0,34.52,CL,1675624495
74,busselton,-33.65,115.3333,66.18,83,30,14.05,AU,1675624495
75,bathsheba,13.2167,-59.5167,83.01,65,40,24.16,BB,1675624495
76,grindavik,63.8424,-22.4338,48.15,87,75,33.38,IS,1675624496
77,yeppoon,-23.1333,150.7333,78.58,87,64,12.19,AU,1675624496
78,sulphur springs,33.1385,-95.6011,67.21,59,0,5.75,US,1675624496
79,reitz,-27.8014,28.4273,61.38,77,95,13.22,ZA,1675624497
80,brigantine,39.4101,-74.3646,51.04,67,100,11.01,US,1675624497
81,saint-philippe,-21.3585,55.7679,80.19,87,91,10.47,RE,1675624498
82,longyearbyen,78.2186,15.6401,26.44,74,40,35.68,SJ,1675624498
83,coihaique,-45.5752,-72.0662,70.41,40,20,12.66,CL,1675624376
84,payo,-3.7508,103.6372,69.51,78,100,1.66,ID,1675624498
85,port macquarie,-31.4333,152.9167,65.89,81,94,2.82,AU,1675624499
86,atuona,-9.8,-139.0333,78.22,80,20,16.71,PF,1675624499
87,ilulissat,69.2167,-51.1,3.22,72,75,10.36,GL,1675624242
88,port elizabeth,-33.918,25.5701,78.1,92,20,18.41,ZA,1675624499
89,george town,5.4112,100.3354,76.95,94,20,0.0,MY,1675624500
90,kadipaten,-8.1357,113.2158,74.84,84,100,1.23,ID,1675624500
91,varberg,57.1056,12.2508,34.05,93,97,7.36,SE,1675624501
92,yingcheng,30.95,113.55,48.74,70,100,3.6,CN,1675624501
93,kuah,6.3265,99.8432,79.86,76,77,15.23,MY,1675624501
94,nuuk,64.1835,-51.7216,12.81,85,75,8.05,GL,1675624502
95,prieska,-29.6641,22.7474,79.88,45,25,9.62,ZA,1675624502
96,kodiak,57.79,-152.4072,38.71,100,100,18.41,US,1675624503
97,nikolskoye,59.7035,30.7861,22.91,85,100,7.14,RU,1675624503
98,preston,53.7667,-2.7167,40.98,71,100,2.06,GB,1675624504
99,namatanai,-3.6667,152.4333,78.12,82,33,3.04,PG,1675624303
100,ornskoldsvik,63.2909,18.7153,32.95,86,17,16.11,SE,1675624505
101,khatanga,71.9667,102.5,-30.96,96,94,5.37,RU,1675624505
102,shenjiamen,29.9576,122.298,51.53,97,100,12.8,CN,1675624506
103,bethel,41.3712,-73.414,47.03,45,100,1.99,US,1675624506
104,esperance,-33.8667,121.9,68.59,66,67,17.36,AU,1675624507
105,krabi,8.0726,98.9105,75.13,86,17,6.44,TH,1675624375
106,lira,2.235,32.9097,76.95,31,56,5.86,UG,1675624507
107,srednekolymsk,67.45,153.6833,-34.83,100,100,5.88,RU,1675624508
108,eyl,7.9803,49.8164,75.18,74,100,16.15,SO,1675624243
109,puerto ayora,-0.7393,-90.3518,85.96,89,14,7.0,EC,1675624508
110,cabedelo,-6.9811,-34.8339,86.67,70,11,11.92,BR,1675624509
111,saldanha,-33.0117,17.9442,66.25,87,7,19.6,ZA,1675624510
112,guerrero negro,27.9769,-114.0611,64.69,60,0,14.56,MX,1675624330
113,uyuni,-20.4597,-66.825,53.55,57,100,5.44,BO,1675624510
114,teguise,29.0605,-13.564,59.22,67,0,12.66,ES,1675624511
115,cairns,-16.9167,145.7667,80.55,94,75,6.91,AU,1675624233
116,rio negro,-26.1058,-49.7975,85.55,28,22,5.48,BR,1675624512
117,high level,58.5169,-117.136,11.5,91,100,1.66,CA,1675624248
118,thompson,55.7435,-97.8558,3.36,78,100,4.61,CA,1675624512
119,lavrentiya,65.5833,-171.0,-3.57,96,100,9.15,RU,1675624512
120,castro,-24.7911,-50.0119,76.98,57,77,7.27,BR,1675624372
121,cadillac,44.2519,-85.4012,34.79,74,100,11.5,US,1675624513
122,cocal,-28.6167,-49.35,82.8,41,3,8.16,BR,1675624514
123,alice springs,-23.7,133.8833,54.95,82,0,5.75,AU,1675624515
124,faya,18.3851,42.4509,57.72,63,98,4.41,SA,1675624515
125,norman wells,65.282,-126.8329,-15.93,98,97,0.92,CA,1675624516
126,talcahuano,-36.7167,-73.1167,65.88,72,16,12.66,CL,1675624516
127,tiksi,71.6872,128.8694,-29.42,100,100,3.29,RU,1675624517
128,alamogordo,32.8995,-105.9603,66.78,21,0,11.5,US,1675624425
129,kruisfontein,-34.0033,24.7314,75.88,81,54,10.51,ZA,1675624517
130,chuy,-33.6971,-53.4616,77.25,52,0,11.12,UY,1675624518
131,nouakchott,18.0858,-15.9785,76.93,34,90,8.59,MR,1675624518
132,launceston,-41.45,147.1667,52.16,87,77,1.01,AU,1675624519
133,cherat,33.8233,71.8915,44.53,49,100,3.56,PK,1675624520
134,vila,42.0304,-8.1588,43.68,69,0,4.21,PT,1675624521
135,clyde river,70.4692,-68.5914,-12.77,58,100,16.11,CA,1675624521
136,victor harbor,-35.5667,138.6167,57.69,87,0,7.09,AU,1675624521
137,puerto colombia,10.9878,-74.9547,87.89,74,100,17.58,CO,1675624522
138,souillac,-20.5167,57.5167,79.18,83,40,9.22,MU,1675624523
139,tilichiki,60.4667,166.1,-21.98,95,12,8.25,RU,1675624523
140,ledyard,41.4398,-72.0142,46.33,62,0,9.22,US,1675624523
141,jiehu,35.5428,118.455,36.9,71,99,1.28,CN,1675624524
142,imeni zhelyabova,58.9544,36.5956,-0.2,100,100,2.17,RU,1675624525
143,padang,-0.9492,100.3543,71.65,78,100,2.51,ID,1675624526
144,chulman,56.8479,124.9104,-11.81,99,100,4.07,RU,1675624528
145,provideniya,64.3833,-173.3,1.42,95,99,10.36,RU,1675624529
146,banda aceh,5.5577,95.3222,77.94,80,100,2.57,ID,1675624530
147,yuli,9.6989,10.2744,83.32,14,100,5.95,NG,1675624530
148,cape town,-33.9258,18.4232,70.21,82,0,18.41,ZA,1675624531
149,watsa,3.0372,29.5355,71.67,36,15,1.57,CD,1675624531
150,dale,38.1689,-86.99,54.73,54,0,16.11,US,1675624531
151,constitucion,-35.3333,-72.4167,68.92,71,19,7.65,CL,1675624532
152,arraial do cabo,-22.9661,-42.0278,84.06,70,40,6.91,BR,1675624532
153,tarbes,43.25,0.1667,44.49,81,100,3.44,FR,1675624533
154,muzhi,65.3667,64.6667,-4.0,98,43,3.87,RU,1675624533
155,lima,-12.0432,-77.0282,77.25,69,0,12.66,PE,1675624366
156,sung noen,14.8992,101.8207,82.06,68,39,3.51,TH,1675624534
157,oksbol,55.6268,8.2876,37.9,88,70,15.28,DK,1675624534
158,san-pedro,4.7485,-6.6363,80.15,85,100,10.89,CI,1675624535
159,gogrial,8.5332,28.1004,82.69,14,11,5.57,SS,1675624535
160,thaba nchu,-29.2093,26.839,71.37,35,7,5.53,ZA,1675624535
161,avarua,-21.2078,-159.775,80.65,83,20,12.66,CK,1675624536
162,kushmurun,52.4503,64.6311,6.24,97,99,6.13,KZ,1675624536
163,ocampo,21.65,-101.5,69.78,13,0,11.7,MX,1675624537
164,grinnell,41.743,-92.7224,40.51,80,0,13.8,US,1675624537
165,lorengau,-2.0226,147.2712,81.09,79,100,4.9,PG,1675624537
166,pali,25.7667,73.3333,67.82,28,0,7.81,IN,1675624538
167,tual,-5.6667,132.75,80.11,83,100,21.09,ID,1675624538
168,qaanaaq,77.484,-69.3632,-2.72,62,0,9.37,GL,1675624539
169,umm kaddadah,13.6017,26.6876,72.77,13,19,11.36,SD,1675624539
170,caetite,-14.0694,-42.475,85.42,38,1,3.47,BR,1675624539
171,dikson,73.5069,80.5464,-3.98,97,100,3.24,RU,1675624540
172,boli,45.7667,130.5167,-0.11,98,26,3.51,CN,1675624540
173,dicabisagan,17.0818,122.4157,74.34,90,90,1.74,PH,1675624541
174,komsomolskiy,40.4272,71.7189,39.92,93,100,4.61,UZ,1675624304
175,montorio al vomano,42.5831,13.6383,36.43,78,46,0.96,IT,1675624541
176,ribeira grande,38.5167,-28.7,61.77,88,20,17.0,PT,1675624542
177,kauhajoki,62.4333,22.1833,28.38,92,40,5.01,FI,1675624542
178,east london,-33.0153,27.9116,77.49,83,7,11.25,ZA,1675624542
179,vaghodia,22.3,73.3833,71.08,25,0,7.0,IN,1675624543
180,fortuna,40.5982,-124.1573,48.65,95,100,3.44,US,1675624543
181,mikhaylovka,50.06,43.2379,18.7,97,90,4.97,RU,1675624544
182,mokrous,51.2333,47.5167,9.12,95,100,4.27,RU,1675624544
183,kristiinankaupunki,62.2743,21.376,27.1,82,11,12.3,FI,1675624544
184,airai,-8.9266,125.4092,60.01,94,100,1.43,TL,1675624545
185,bambous virieux,-20.3428,57.7575,80.22,83,40,9.22,MU,1675624545
186,nyaunglebin,17.95,96.7333,70.07,70,70,4.38,MM,1675624546
187,jamestown,42.097,-79.2353,44.24,32,100,19.57,US,1675624537
188,rafsanjan,30.4067,55.9939,49.93,37,0,4.97,IR,1675624546
189,talnakh,69.4865,88.3972,4.21,97,100,3.76,RU,1675624547
190,margate,51.3813,1.3862,42.69,82,84,5.99,GB,1675624547
191,chokurdakh,70.6333,147.9167,-40.43,100,87,3.36,RU,1675624547
192,fayaoue,-20.65,166.5333,82.98,80,100,15.12,NC,1675624548
193,palauig,15.435,119.9045,76.68,76,93,3.36,PH,1675624548
194,omsukchan,62.5333,155.8,-36.4,99,85,4.72,RU,1675624549
195,gambo,4.6482,22.2633,78.55,20,5,2.15,CF,1675624549
196,birjand,32.8663,59.2211,40.39,52,0,1.1,IR,1675624550
197,hellvik,59.9156,5.781,43.36,95,96,5.1,NO,1675624551
198,san quintin,30.4833,-115.95,63.81,59,0,17.47,MX,1675624551
199,kamenka,51.3223,42.7678,10.51,98,81,5.01,RU,1675624551
200,bac lieu,9.285,105.7244,75.2,86,49,9.53,VN,1675624552
201,sobolevo,54.4299,31.8996,22.91,94,100,7.56,RU,1675624552
202,mar del plata,-38.0023,-57.5575,91.83,45,100,13.02,AR,1675624553
203,khasan,42.4308,130.6434,21.9,81,37,8.34,RU,1675624553
204,maningrida,-12.0667,134.2667,76.12,86,100,5.79,AU,1675624553
205,saquarema,-22.92,-42.5103,84.24,84,34,3.18,BR,1675624554
206,narsaq,60.9167,-46.05,19.62,93,100,9.78,GL,1675624554
207,gorontalo,0.5412,123.0595,74.43,87,100,3.69,ID,1675624555
208,mount gambier,-37.8333,140.7667,51.93,93,15,3.74,AU,1675624555
209,porto de moz,-1.7483,-52.2383,83.23,73,99,1.52,BR,1675624555
210,iqaluit,63.7506,-68.5145,-18.31,68,100,23.0,CA,1675624556
211,verkhnyaya sinyachikha,57.976,61.6673,8.89,98,100,2.39,RU,1675624556
212,blytheville,35.9273,-89.919,57.25,67,0,11.01,US,1675624425
213,deputatskiy,69.3,139.9,-24.86,98,100,3.65,RU,1675624557
214,medea,36.2642,2.7539,39.22,92,0,3.44,DZ,1675624557
215,svetlyy,54.675,20.1347,28.96,83,100,2.71,RU,1675624558
216,tabuk,17.4189,121.4443,71.24,89,99,2.57,PH,1675624417
217,beira,-19.8436,34.8389,82.49,83,20,8.05,MZ,1675624558
218,vanimo,-2.6741,141.3028,78.01,88,100,3.22,PG,1675624558
219,baykit,61.67,96.37,10.56,98,100,2.46,RU,1675624559
220,steamboat springs,40.485,-106.8317,39.7,54,40,0.0,US,1675624405
221,mananara,-16.1667,49.7667,74.25,94,100,4.68,MG,1675624559
222,qui nhon,13.7667,109.2333,70.81,90,96,5.39,VN,1675624560
223,vila franca do campo,37.7167,-25.4333,61.21,86,26,6.04,PT,1675624362
224,ixtapa,20.7,-105.2,76.23,69,0,9.22,MX,1675624560
225,torbay,47.6666,-52.7314,26.76,71,40,27.63,CA,1675624546
226,maltahohe,-24.8333,16.9833,83.5,34,100,14.81,NA,1675624561
227,vardo,70.3705,31.1107,19.38,86,0,27.63,NO,1675624561
228,mehamn,71.0357,27.8492,24.75,86,75,14.97,NO,1675624562
229,dunedin,-45.8742,170.5036,66.79,51,44,4.0,NZ,1675624563
230,valle de allende,26.9333,-105.4,72.3,16,0,8.86,MX,1675624564
231,vostok,46.4856,135.8833,-7.13,100,98,3.87,RU,1675624565
232,kaitangata,-46.2817,169.8464,59.13,84,100,14.99,NZ,1675624566
233,sabha,27.0377,14.4283,54.88,41,5,9.95,LY,1675624567
234,pinsk,52.1229,26.0951,23.47,83,97,10.31,BY,1675624567
235,seoul,37.5683,126.9778,26.04,75,28,1.7,KR,1675624437
236,codrington,-38.2667,141.9667,55.63,86,35,6.06,AU,1675624568
237,westport,41.1415,-73.3579,46.62,48,100,3.0,US,1675624466
238,constantine,36.365,6.6147,42.21,93,40,4.61,DZ,1675624569
239,victoria,22.2855,114.1577,67.95,88,100,4.0,HK,1675624569
240,manaquiri,-3.3167,-60.35,79.29,75,78,3.89,BR,1675624570
241,atocha,-20.9333,-66.2333,52.61,56,100,4.59,BO,1675624571
242,caiaponia,-16.9567,-51.8103,80.22,65,100,1.77,BR,1675624572
243,pacasmayo,-7.4006,-79.5714,77.63,65,43,12.55,PE,1675624573
244,dengzhou,37.8086,120.7508,35.28,72,78,5.88,CN,1675624574
245,lompoc,34.6391,-120.4579,61.52,76,40,13.8,US,1675624488
246,russell,32.3502,-85.1999,65.48,52,0,3.44,US,1675624525
247,sao filipe,14.8961,-24.4956,71.4,61,100,12.75,CV,1675624577
248,havre-saint-pierre,50.2334,-63.5986,8.6,72,100,9.22,CA,1675624578
249,bilma,18.6853,12.9164,72.75,14,24,13.89,NE,1675624579
250,taoudenni,22.6783,-3.9836,67.6,18,98,9.98,ML,1675624580
251,antofagasta,-23.65,-70.4,76.28,70,2,8.68,CL,1675624328
252,nea kallikratia,40.3167,23.0667,36.18,45,80,27.18,GR,1675624582
253,naron,43.5167,-8.1528,53.6,77,4,13.47,ES,1675624582
254,cockburn town,21.4612,-71.1419,80.56,65,40,14.97,TC,1675624583
255,sabang,5.8933,95.3214,80.67,72,100,4.18,ID,1675624583
256,rio pardo de minas,-15.6097,-42.5397,84.34,47,35,4.36,BR,1675624584
257,buttelborn,49.9033,8.5233,42.12,93,100,8.05,DE,1675624585
258,rawson,-43.3002,-65.1023,80.31,41,2,19.82,AR,1675624294
259,inhambane,-23.865,35.3833,75.7,84,0,9.44,MZ,1675624587
260,lasa,46.6166,10.7002,34.68,93,78,6.06,IT,1675624588
261,coolum beach,-26.5333,153.1,75.34,85,100,11.92,AU,1675624589
262,valparaiso,-33.0393,-71.6273,79.03,46,0,10.36,CL,1675624578
263,prijedor,44.9814,16.7131,29.88,60,17,4.79,BA,1675624591
264,la ronge,55.1001,-105.2842,32.25,74,75,8.05,CA,1675624591
265,egvekinot,66.3167,-179.1667,-21.69,87,100,11.25,RU,1675624592
266,bose,45.4612,8.0137,42.39,95,100,3.76,IT,1675624592
267,kununurra,-15.7667,128.7333,75.18,94,22,0.0,AU,1675624592
268,karratha,-20.7377,116.8463,87.4,52,11,10.36,AU,1675624593
269,den helder,52.9599,4.7593,42.98,83,100,7.0,NL,1675624415
270,show low,34.2542,-110.0298,57.49,19,0,18.41,US,1675624593
271,oistins,13.0667,-59.5333,82.49,65,40,24.16,BB,1675624594
272,roma,43.2128,-75.4557,43.68,47,0,9.22,US,1675624555
273,kita,13.0349,-9.4895,86.2,12,0,4.81,ML,1675624594
274,ocos,14.5094,-92.1933,89.78,61,0,9.66,GT,1675624595
275,puerto el triunfo,13.2833,-88.55,97.66,42,1,9.78,SV,1675624595
276,nokaneng,-19.6667,22.2667,73.8,72,97,5.68,BW,1675624595
277,pincher creek,49.4833,-113.952,42.91,60,100,17.13,CA,1675624504
278,florianopolis,-27.6146,-48.5012,83.12,67,20,11.5,BR,1675624368
279,kattivakkam,13.2167,80.3167,77.09,77,5,5.46,IN,1675624596
280,pitimbu,-7.4706,-34.8086,86.59,69,12,11.01,BR,1675624596
281,moerai,-22.4333,-151.3333,79.74,77,7,13.91,PF,1675624597
282,upernavik,72.7868,-56.1549,-14.06,95,100,1.41,GL,1675624597
283,ewa beach,21.3156,-158.0072,78.75,72,0,17.27,US,1675624597
284,ilebo,-4.3167,20.5833,72.9,85,52,3.22,CD,1675624598
285,chirongui,-12.9319,45.1483,82.33,72,100,5.41,YT,1675624598
286,palmer,42.1584,-72.3287,48.18,37,75,10.36,US,1675624599
287,qaqortoq,60.7167,-46.0333,19.35,92,100,10.02,GL,1675624599
288,kieta,-6.2167,155.6333,78.37,84,100,2.46,PG,1675624599
289,namibe,-15.1961,12.1522,72.34,77,36,6.6,AO,1675624600
290,cherskiy,68.75,161.3,-41.84,100,100,4.79,RU,1675624600
291,belmonte,-15.8631,-38.8828,83.71,64,1,12.41,BR,1675624601
292,pangnirtung,66.1451,-65.7125,-27.4,68,75,2.3,CA,1675624601
293,ust-nera,64.5667,143.2,-33.88,100,100,0.36,RU,1675624358
294,kpandu,6.9954,0.2931,85.64,51,100,5.7,GH,1675624602
295,green river,41.5286,-109.4662,34.2,66,72,3.0,US,1675624518
296,chernyshevskiy,63.0128,112.4714,-52.6,100,64,0.67,RU,1675624602
297,adrar,20.5022,-10.0711,65.37,22,100,9.98,MR,1675624602
298,mao,39.8885,4.2658,52.36,76,20,17.27,ES,1675624603
299,half moon bay,37.4636,-122.4286,56.98,83,40,20.71,US,1675624487
300,vilyuysk,63.7553,121.6247,-53.27,100,90,3.47,RU,1675624603
301,sheridan,44.8333,-106.9173,32.45,70,100,6.91,US,1675624519
302,tomatlan,19.9333,-105.25,89.42,31,0,9.4,MX,1675624604
303,andros town,24.7,-77.7667,80.56,69,5,18.19,BS,1675624604
304,kajiado,-1.8524,36.7768,65.37,48,12,16.31,KE,1675624605
305,turayf,31.6725,38.6637,44.85,57,0,9.22,SA,1675624605
306,umm lajj,25.0213,37.2685,67.98,51,6,6.02,SA,1675624605
307,lena,43.1,-5.7333,36.9,96,52,1.48,ES,1675624606
308,koutsouras,35.0339,25.9469,47.1,74,100,36.24,GR,1675624606
309,vallenar,-28.5708,-70.7581,87.01,32,0,11.86,CL,1675624607
310,vuktyl,63.8567,57.3094,0.41,99,94,3.06,RU,1675624607
311,antropovo,58.3988,43.0066,15.46,98,97,2.01,RU,1675624607
312,nanortalik,60.1432,-45.2371,23.13,91,100,11.79,GL,1675624608
313,sola,-13.8833,167.55,82.53,75,100,21.39,VU,1675624608
314,ulaangom,49.9811,92.0667,-3.37,99,100,1.43,MN,1675624609
315,touros,-5.1989,-35.4608,83.28,68,100,12.95,BR,1675624551
316,bayji,34.9311,43.487,54.27,51,100,10.33,IQ,1675624609
317,geraldton,-28.7667,114.6,73.81,73,100,11.5,AU,1675624385
318,harper,4.375,-7.7169,80.65,81,100,9.26,LR,1675624609
319,coquimbo,-29.9533,-71.3436,73.13,64,0,17.27,CL,1675624610
320,naze,28.3667,129.4833,63.52,77,100,11.12,JP,1675624610
321,matay,28.419,30.7792,55.94,28,0,7.99,EG,1675624611
322,ouegoa,-20.35,164.4333,81.21,85,100,11.27,NC,1675624611
323,severo-kurilsk,50.6789,156.125,24.51,80,99,7.49,RU,1675624611
324,roald,62.5833,6.1333,43.32,87,75,9.22,NO,1675624612
325,hamilton,39.1834,-84.5333,53.55,54,100,17.27,US,1675624612
326,olafsvik,64.8945,-23.7142,45.45,83,100,43.37,IS,1675624423
327,akdepe,42.0551,59.3788,30.29,65,100,6.96,TM,1675624613
328,kedrovka,55.5333,86.05,7.68,99,16,2.3,RU,1675624613
329,high prairie,55.4334,-116.4858,33.69,89,100,5.41,CA,1675624614
330,kenora,49.8167,-94.4337,9.57,78,100,2.3,CA,1675624614
331,grandview,38.8858,-94.533,60.15,31,0,13.8,US,1675624440
332,porosozero,62.7191,32.727,16.7,96,100,4.41,RU,1675624615
333,shitanjing,39.2342,106.3439,24.22,34,32,2.68,CN,1675624615
334,acajutla,13.5928,-89.8275,87.46,43,1,8.68,SV,1675624616
335,lakes entrance,-37.8811,147.981,55.51,92,84,7.47,AU,1675624617
336,kumluca,36.3703,30.2869,43.97,89,95,2.1,TR,1675624617
337,manavalakurichi,8.1333,77.3,76.06,77,41,5.53,IN,1675624618
338,mandalgovi,45.7625,106.2708,12.58,54,54,2.13,MN,1675624618
339,ishigaki,24.3448,124.1572,71.73,83,75,10.36,JP,1675624619
340,kysyl-syr,63.8986,122.7617,-50.71,100,77,3.94,RU,1675624619
341,iguaba grande,-22.8392,-42.2289,84.24,70,40,8.05,BR,1675624619
342,kahului,20.8947,-156.47,77.85,79,20,20.71,US,1675624620
343,pindobacu,-10.7417,-40.3608,93.79,24,3,9.24,BR,1675624620
344,erenhot,43.6475,111.9767,14.76,56,11,1.99,CN,1675624621
345,clarence town,-32.5833,151.7833,73.85,94,0,1.9,AU,1675624621
346,vila velha,-20.3297,-40.2925,85.95,76,20,19.57,BR,1675624492
347,monte aprazivel,-20.7725,-49.7142,81.25,77,99,6.11,BR,1675624622
348,saint john,45.2727,-66.0677,33.8,93,100,5.75,CA,1675624554
349,sao felix do xingu,-6.6447,-51.995,89.08,53,92,2.89,BR,1675624574
350,nome,64.5011,-165.4064,15.87,80,75,6.91,US,1675624624
351,salalah,17.0151,54.0924,73.49,73,0,4.61,OM,1675624626
352,mzimba,-11.9,33.6,62.69,98,100,2.46,MW,1675624628
353,bubaque,11.2833,-15.8333,77.61,71,34,10.22,GW,1675624629
354,ekhabi,53.5102,142.9671,-3.6,94,100,9.93,RU,1675624629
355,bengkulu,-3.8004,102.2655,73.69,91,100,5.75,ID,1675624631
356,aizawl,23.7333,92.7167,45.14,58,5,2.75,IN,1675624631
357,lubango,-14.9172,13.4925,59.43,86,94,4.74,AO,1675624632
358,coruripe,-10.1256,-36.1756,82.92,67,65,11.43,BR,1675624632
359,vitim,59.4511,112.5578,-10.68,100,100,2.26,RU,1675624633
360,methoni,36.8197,21.7049,45.21,59,30,21.81,GR,1675624633
361,mathbaria,22.2876,89.9593,63.99,45,6,2.73,BD,1675624635
362,juegang,32.3174,121.1855,47.98,88,100,7.78,CN,1675624636
363,poniatowa,51.1798,22.1309,26.51,96,37,5.39,PL,1675624637
364,chumikan,54.7183,135.315,-7.74,90,83,15.35,RU,1675624637
365,imbituba,-28.24,-48.6703,79.47,62,50,8.05,BR,1675624581
366,gunjur,13.2019,-16.7339,77.07,41,0,9.22,GM,1675624639
367,rolla,37.9514,-91.7713,59.14,34,0,10.36,US,1675624611
368,tuy hoa,13.0833,109.3,70.27,94,47,2.64,VN,1675624641
369,kulhudhuffushi,6.6221,73.07,80.64,73,52,1.34,MV,1675624641
370,port lincoln,-34.7333,135.8667,60.69,84,6,10.71,AU,1675624642
371,barquisimeto,10.0739,-69.3228,86.0,36,77,11.99,VE,1675624642
372,batemans bay,-35.7167,150.1833,61.43,82,79,2.82,AU,1675624643
373,bogorodskoye,56.55,37.8833,15.06,98,92,4.68,RU,1675624644
374,severobaykalsk,55.65,109.3167,-3.78,92,90,5.01,RU,1675624644
375,domoni,-12.2569,44.5319,80.56,81,100,2.73,KM,1675624645
376,nishihara,26.1842,127.7558,65.86,94,75,6.91,JP,1675624645
377,isangel,-19.55,169.2667,80.28,82,100,5.91,VU,1675624646
378,gayeri,12.6497,0.4931,86.43,11,100,8.63,BF,1675624646
379,nadym,65.5333,72.5167,-11.85,100,100,4.29,RU,1675624647
380,calamar,10.2511,-74.9146,97.03,28,86,6.44,CO,1675624648
381,anlu,31.1661,112.5831,44.74,81,67,2.53,CN,1675624650
382,lincoln,40.8,-96.667,55.27,44,0,6.91,US,1675624560
383,hofn,64.2539,-15.2082,45.39,98,100,23.38,IS,1675624652
384,saint-georges,12.0564,-61.7485,78.8,76,45,18.61,GD,1675624442
385,kibaya,-5.3,36.5667,63.28,72,100,2.86,TZ,1675624652
386,marzuq,14.4,46.4667,64.85,77,100,6.2,YE,1675624653
387,saint-francois,46.4154,3.9054,38.68,78,0,8.05,FR,1675624653
388,college,64.8569,-147.8028,-0.42,77,0,8.05,US,1675624653
389,auckland,-36.8667,174.7667,64.78,76,100,5.99,NZ,1675624531
390,bendigo,-36.7667,144.2833,52.86,49,0,4.36,AU,1675624654
391,mae ramat,16.984,98.5166,68.45,87,23,1.25,TH,1675624654
392,yatou,37.15,122.3833,35.15,87,100,6.11,CN,1675624655
393,santa rosalia,27.3167,-112.2833,70.92,27,6,3.69,MX,1675624655
394,saint-louis,16.3333,-15.0,80.42,11,89,7.78,SN,1675624655
395,batagay-alyta,67.8006,130.4114,-25.67,99,100,1.34,RU,1675624656
396,atasu,48.6814,71.6433,21.69,96,100,5.86,KZ,1675624656
397,tatawin,32.9297,10.4518,51.15,70,2,6.26,TN,1675624657
398,dingle,10.9995,122.6711,73.78,93,100,7.78,PH,1675624657
399,prainha,-1.8,-53.48,86.97,56,96,4.79,BR,1675624657
400,azanka,58.0401,64.7893,6.98,99,100,2.53,RU,1675624658
401,komsomolets,53.7453,62.0708,3.31,97,93,6.96,KZ,1675624658
402,hambantota,6.1241,81.1185,76.8,84,100,8.97,LK,1675624659
403,candido mendes,-1.4467,-45.7167,81.3,80,93,6.69,BR,1675624659
404,ahipara,-35.1667,173.1667,63.95,93,100,7.47,NZ,1675624660
405,vestmannaeyjar,63.4427,-20.2734,48.04,91,100,41.03,IS,1675624660
406,itaqui,-29.1253,-56.5531,89.51,18,100,5.41,BR,1675624576
407,sitka,57.0531,-135.33,39.09,70,100,12.66,US,1675624661
408,vidim,56.4088,103.1106,9.16,97,100,3.69,RU,1675624661
409,lagoa,39.05,-27.9833,59.58,84,24,17.34,PT,1675624661
410,alta floresta,-9.8756,-56.0861,89.42,58,40,4.61,BR,1675624662
411,hovd,48.0056,91.6419,3.56,79,9,3.8,MN,1675624662
412,beringovskiy,63.05,179.3167,-19.34,93,100,12.28,RU,1675624663
413,goderich,43.7501,-81.7165,38.91,80,100,16.11,CA,1675624492
414,amapa,1.0,-52.0,78.06,95,100,3.87,BR,1675624663
415,leh,34.1667,77.5833,7.0,56,100,0.07,IN,1675624483
416,bayir,37.2687,28.2167,39.72,91,100,15.05,TR,1675624663
417,praia da vitoria,38.7333,-27.0667,62.76,82,20,14.63,PT,1675624664
418,katsuura,35.1333,140.3,47.5,82,0,6.46,JP,1675624664
419,arman,59.7,150.1667,-15.03,83,98,8.32,RU,1675624665
420,teplodar,46.5059,30.3252,27.25,81,96,15.19,UA,1675624665
421,herrin,37.8031,-89.0276,56.34,55,0,11.5,US,1675624665
422,progreso,21.2833,-89.6667,80.71,71,100,12.28,MX,1675624370
423,maraa,-1.8333,-65.3667,81.46,85,100,3.22,BR,1675624666
424,solnechnyy,50.7214,136.6319,-11.34,96,46,3.06,RU,1675624666
425,staryy nadym,65.6118,72.6842,-11.97,100,100,4.43,RU,1675624667
426,pathein,16.7833,94.7333,70.02,65,8,7.94,MM,1675624579
427,ereymentau,51.6199,73.1033,8.53,96,100,4.16,KZ,1675624667
428,kavieng,-2.5744,150.7967,81.32,74,100,2.66,PG,1675624668
429,outlook,51.5001,-107.0513,31.48,81,10,10.58,CA,1675624540
430,berbera,10.4396,45.0143,75.87,65,100,6.4,SO,1675624668
431,along,28.1667,94.7667,53.13,64,0,1.63,IN,1675624668
432,tuyen quang,21.8233,105.2181,67.5,97,100,1.34,VN,1675624669
433,grand gaube,-20.0064,57.6608,80.38,77,29,5.01,MU,1675624669
434,svetlogorsk,52.6333,29.7333,24.12,91,100,8.68,BY,1675624670
435,yar-sale,66.8333,70.8333,-11.15,100,66,4.59,RU,1675624670
436,arsk,56.0915,49.8778,0.48,100,100,4.38,RU,1675624671
437,vammala,61.3333,22.9,30.9,83,100,9.66,FI,1675624671
438,kudahuvadhoo,2.6708,72.8944,79.74,74,52,1.54,MV,1675624671
439,saint-pierre,-21.3393,55.4781,80.28,78,0,3.44,RE,1675624672
440,la romana,18.4273,-68.9728,88.16,51,40,11.5,DO,1675624672
441,shelburne,44.0787,-80.2041,36.9,79,100,15.73,CA,1675624673
442,sinjar,36.3209,41.8754,49.12,65,100,15.23,IQ,1675624673
443,portland,45.5234,-122.6762,51.01,88,75,13.8,US,1675624439
444,cayenne,4.9333,-52.3333,75.24,94,75,6.91,GF,1675624673
445,ambon,-3.6954,128.1814,78.87,82,100,12.24,ID,1675624424
446,flin flon,54.7682,-101.865,17.44,86,100,10.36,CA,1675624674
447,agadez,19.75,10.25,69.48,16,0,11.72,NE,1675624674
448,bacum,27.55,-110.0833,75.58,17,0,1.92,MX,1675624675
449,jaffna,9.6685,80.0074,76.26,80,100,11.79,LK,1675624675
450,ketchikan,55.3422,-131.6461,39.18,87,0,4.61,US,1675624675
451,amazar,53.858,120.875,-22.45,99,37,3.0,RU,1675624676
452,matveyevka,52.15,56.1833,-0.31,98,100,2.86,RU,1675624676
453,waipawa,-41.4122,175.5153,63.54,74,0,15.57,NZ,1675624677
454,samarai,-10.6167,150.6667,79.56,85,100,15.7,PG,1675624677
455,innisfail,-17.5333,146.0333,76.46,93,100,2.73,AU,1675624677
456,sorland,67.667,12.6934,39.06,60,100,22.46,NO,1675624678
457,dali,25.7,100.1833,42.84,56,0,5.41,CN,1675624678
458,kirakira,-10.4544,161.9205,77.72,97,100,13.44,SB,1675624678
459,tevaitoa,-16.7833,-151.5,81.34,75,13,14.14,PF,1675624679
460,noumea,-22.2763,166.4572,82.99,99,100,8.81,NC,1675624679
461,boende,-0.2167,20.8667,80.76,45,46,0.85,CD,1675624680
462,onalaska,43.8844,-91.2351,33.3,66,0,11.5,US,1675624431
463,edson,53.5835,-116.4356,37.54,56,0,3.44,CA,1675624680
464,jiuquan,39.7432,98.5174,26.31,40,6,4.25,CN,1675624681
465,jan kempdorp,-27.9225,24.8305,72.84,55,99,14.56,ZA,1675624681
466,chillan,-36.6066,-72.1034,84.52,39,55,4.61,CL,1675624682
467,qasigiannguit,68.8193,-51.1922,3.45,98,100,10.6,GL,1675624684
468,wanaka,-44.7,169.15,62.11,64,100,11.99,NZ,1675624684
469,umaria,23.5333,80.8333,60.76,36,0,3.74,IN,1675624685
470,san cristobal,7.7669,-72.225,77.18,62,68,6.4,VE,1675624686
471,auki,-8.7676,160.7034,76.78,94,100,12.37,SB,1675624686
472,chekhov,55.1431,37.4711,28.29,95,99,4.56,RU,1675624687
473,araguari,-18.6472,-48.1872,82.69,66,100,4.52,BR,1675624687
474,nikolayevsk-na-amure,53.1406,140.73,-10.5,100,99,3.09,RU,1675624688
475,laguna,38.421,-121.4238,57.18,78,0,17.27,US,1675624690
476,mocuba,-16.8392,36.9856,74.5,93,31,3.2,MZ,1675624690
477,luan,46.3592,6.9759,32.63,88,100,5.99,CH,1675624691
478,carbonia,39.1672,8.5222,53.01,86,57,1.3,IT,1675624692
479,iranshahr,27.2025,60.6848,62.94,51,0,0.0,IR,1675624692
480,korla,41.7597,86.1469,28.74,69,8,4.38,CN,1675624693
481,iquitos,-3.7481,-73.2472,75.24,94,100,6.91,PE,1675624693
482,madera,37.1666,-119.8343,56.43,94,66,3.0,US,1675624652
483,luganville,-15.5333,167.1667,80.6,85,100,13.62,VU,1675624694
484,itapirapua,-15.8233,-50.6133,81.81,73,100,1.57,BR,1675624695
485,elliot,-31.3333,27.85,61.54,80,7,3.89,ZA,1675624695
486,chingirlau,51.095,54.0814,5.45,92,100,5.03,KZ,1675624696
487,houma,29.5958,-90.7195,71.01,55,40,8.05,US,1675624486
488,nyurba,63.2842,118.3319,-54.58,100,65,3.6,RU,1675624697
489,tazovskiy,67.4667,78.7,-9.4,100,73,8.3,RU,1675624698
490,demba,-5.51,22.2667,69.67,83,9,3.58,CD,1675624699
491,botosani,47.75,26.6667,29.88,90,100,11.01,RO,1675624699
492,turkan,40.3639,50.215,41.18,87,75,11.5,AZ,1675624700
493,carnot,4.9409,15.8665,79.9,16,35,4.88,CF,1675624701
494,pingshan,22.9938,114.7131,62.24,97,100,1.3,CN,1675624702
495,stralsund,54.3091,13.0818,32.02,66,92,9.28,DE,1675624703
496,bonavista,48.6499,-53.1147,23.31,66,100,20.92,CA,1675624704
497,marawi,7.9986,124.2928,67.32,90,100,2.57,PH,1675624705
498,yangambi,0.8102,24.4336,77.65,42,5,2.42,CD,1675624705
499,athabasca,54.7169,-113.2854,28.81,81,100,5.55,CA,1675624707
500,bure,10.7,37.0667,63.5,30,27,5.08,ET,1675624709
501,lata,40.1629,-8.3327,48.6,67,0,4.9,PT,1675624709
502,mimongo,-1.6195,11.6068,70.92,95,84,1.54,GA,1675624642
503,les escoumins,48.1111,-69.0236,15.15,92,100,9.13,CA,1675624710
504,dudinka,69.4058,86.1778,4.62,99,99,2.62,RU,1675624710
505,xuddur,4.1213,43.8894,77.0,23,24,11.14,SO,1675624711
506,murgab,37.4966,61.9714,40.87,75,40,4.61,TM,1675624711
507,okato,-39.2,173.8833,65.91,1,13,7.02,NZ,1675624712
508,skibbereen,51.55,-9.2667,49.1,92,51,6.22,IE,1675624712
509,mayumba,-3.432,10.6554,79.0,84,74,6.11,GA,1675624712
510,teguldet,57.3064,88.1667,-10.97,100,100,1.45,RU,1675624713
511,warrnambool,-38.3833,142.4833,57.99,81,53,6.73,AU,1675624528
512,mujiayingzi,42.1167,118.7833,16.99,53,0,1.77,CN,1675624713
513,cap malheureux,-19.9842,57.6142,80.47,77,31,5.01,MU,1675624714
514,taksimo,56.3444,114.8794,-0.74,88,100,4.7,RU,1675624714
515,ocu,35.0044,135.8683,35.87,90,0,1.28,JP,1675624427
516,hobyo,5.3505,48.5268,76.33,80,3,19.04,SO,1675624715
517,zhezkazgan,47.8043,67.7144,26.42,96,99,6.49,KZ,1675624715
518,aragarcas,-15.8975,-52.2508,83.05,78,75,4.61,BR,1675624716
519,amberg,49.4414,11.8622,30.31,92,73,1.63,DE,1675624716
520,pasighat,28.0667,95.3333,61.14,46,0,3.36,IN,1675624716
521,awjilah,29.1081,21.2869,56.97,63,41,16.13,LY,1675624717
522,kargasok,59.0556,80.8572,-1.19,100,97,3.91,RU,1675624717
523,baker,30.5882,-91.1682,69.84,53,75,8.05,US,1675624479
524,abay,49.6311,72.8539,12.58,97,100,4.03,KZ,1675624718
525,west fargo,46.875,-96.9004,22.01,76,100,1.99,US,1675624718
526,jadu,31.953,12.0261,48.76,74,99,9.19,LY,1675624718
527,bara,10.3744,10.7288,82.56,14,78,8.34,NG,1675624719
528,baoqing,46.3317,132.2111,-10.44,100,48,4.0,CN,1675624719
529,hindaun,26.7167,77.0167,63.39,41,0,4.09,IN,1675624719
530,labrea,-7.2586,-64.7981,84.07,68,70,0.96,BR,1675624720
