City_ID,City,Lat,Lng,Max Temp,Humidity,Cloudiness,Wind Speed,Country,Date
0,clovis,36.8252,-119.7029,68.67,37,100,11.5,US,1675551206
1,mount gambier,-37.8333,140.7667,59.36,72,100,3.87,AU,1675551206
2,severo-kurilsk,50.6789,156.125,27.32,72,100,5.86,RU,1675551174
3,lompoc,34.6391,-120.4579,69.94,73,40,9.22,US,1675551207
4,nome,64.5011,-165.4064,12.27,92,100,0.0,US,1675551094
5,codo,-4.4553,-43.8856,76.55,81,87,3.69,BR,1675551212
6,coxim,-18.5067,-54.76,77.04,84,89,2.08,BR,1675551212
7,tasiilaq,65.6145,-37.6368,24.96,88,100,25.66,GL,1675551206
8,bluff,-46.6,168.3333,62.46,90,100,13.98,NZ,1675551213
9,vaini,-21.2,-175.2,80.76,94,75,18.41,TO,1675551213
10,lannion,48.75,-3.4167,46.0,83,100,3.65,FR,1675551213
11,praya,14.9215,-23.5087,70.34,73,0,16.11,CV,1675551117
12,kieta,-6.2167,155.6333,80.08,82,98,3.38,PG,1675551214
13,yerofey pavlovich,53.9667,121.9667,-19.73,99,91,3.04,RU,1675551214
14,sorong,-0.8833,131.25,78.01,85,100,4.94,ID,1675551188
15,georgetown,5.4112,100.3354,78.73,88,20,9.22,MY,1675551205
16,dabat,12.9842,37.765,54.57,45,14,3.94,ET,1675551215
17,castro,-24.7911,-50.0119,63.41,94,84,4.54,BR,1675551215
18,rikitea,-23.1203,-134.9692,79.16,74,2,12.97,PF,1675551215
19,pleshanovo,52.8333,53.4833,6.76,91,100,4.97,RU,1675551216
20,cayenne,4.9333,-52.3333,75.24,100,75,3.44,GF,1675551089
21,havoysund,70.9963,24.6622,26.83,90,99,11.48,NO,1675551217
22,tucumcari,35.1717,-103.725,69.94,13,0,9.22,US,1675551217
23,punta arenas,-53.15,-70.9167,51.91,93,100,9.22,CL,1675551218
24,bredasdorp,-34.5322,20.0403,68.04,89,0,7.7,ZA,1675551218
25,hermanus,-34.4187,19.2345,70.81,92,24,6.82,ZA,1675551098
26,bodden town,19.2833,-81.25,80.6,79,20,10.36,KY,1675551218
27,thompson,55.7435,-97.8558,-0.24,65,75,4.61,CA,1675551176
28,ushuaia,-54.8,-68.3,53.26,62,75,11.5,AR,1675551219
29,bethel,41.3712,-73.414,19.36,38,100,5.75,US,1675551162
30,bengkulu,-3.8004,102.2655,74.01,89,100,4.94,ID,1675551219
31,cidreira,-30.1811,-50.2056,74.05,75,57,10.63,BR,1675551045
32,ribeira grande,38.5167,-28.7,61.77,91,26,11.01,PT,1675551220
33,salisbury,51.0693,-1.7957,47.77,82,100,5.75,GB,1675551220
34,carnarvon,-24.8667,113.6333,78.89,70,1,7.14,AU,1675551220
35,kailua,21.4022,-157.7394,72.9,87,100,3.0,US,1675551048
36,leningradskiy,69.3833,178.4167,-25.53,99,100,4.52,RU,1675551221
37,husavik,66.0449,-17.3389,27.18,75,38,14.81,IS,1675551221
38,hasaki,35.7333,140.8333,38.21,56,5,16.11,JP,1675551222
39,saint-gaudens,43.0833,0.6667,36.01,81,8,5.1,FR,1675551222
40,pedasi,7.5333,-80.0333,77.07,76,42,20.76,PA,1675551222
41,port lincoln,-34.7333,135.8667,64.71,66,61,4.56,AU,1675551219
42,bandarbeyla,9.4942,50.8122,74.07,69,90,14.94,SO,1675551223
43,abu dhabi,24.4667,54.3667,66.22,78,0,2.3,AE,1675551223
44,bandar-e lengeh,26.5579,54.8807,65.59,69,27,13.42,IR,1675551224
45,victoria,22.2855,114.1577,64.94,86,100,8.99,HK,1675551052
46,ha noi,21.0245,105.8412,68.0,93,100,8.81,VN,1675551141
47,ahipara,-35.1667,173.1667,72.9,69,100,10.6,NZ,1675551224
48,shemursha,54.8866,47.5189,2.97,100,100,2.53,RU,1675551225
49,loa janan,-0.583,117.095,72.7,98,100,2.08,ID,1675551225
50,atuona,-9.8,-139.0333,78.67,74,30,17.29,PF,1675551225
51,mataura,-46.1927,168.8643,70.56,75,100,2.51,NZ,1675551226
52,esperance,-33.8667,121.9,66.88,61,0,15.37,AU,1675551226
53,nan,18.8333,100.6667,66.22,94,32,0.0,TH,1675551226
54,kapaa,22.0752,-159.319,73.72,89,100,17.27,US,1675551068
55,somerset east,-32.7217,25.588,69.13,73,99,12.21,ZA,1675551227
56,albany,42.6001,-73.9662,11.95,46,70,4.72,US,1675551217
57,barrow,71.2906,-156.7887,-23.78,76,20,10.36,US,1675551227
58,padang,-0.9492,100.3543,75.25,87,100,2.89,ID,1675551227
59,sisimiut,66.9395,-53.6735,-8.52,93,45,8.59,GL,1675551228
60,khatanga,71.9667,102.5,-38.43,100,50,5.06,RU,1675551156
61,mezen,65.8522,44.24,-4.52,100,74,3.42,RU,1675551228
62,ballina,-28.8667,153.5667,84.02,64,95,7.45,AU,1675551229
63,okha,53.5739,142.9478,-19.44,100,76,9.01,RU,1675551229
64,nikolskoye,59.7035,30.7861,24.78,91,99,6.58,RU,1675551183
65,bayeux,-7.125,-34.9322,81.23,83,20,10.36,BR,1675551229
66,hilo,19.7297,-155.09,78.28,83,75,8.05,US,1675551227
67,codrington,-38.2667,141.9667,60.13,75,100,6.24,AU,1675551114
68,port alfred,-33.5906,26.891,74.17,89,100,3.0,ZA,1675550935
69,vao,-22.6667,167.4833,79.52,87,92,19.51,NC,1675551157
70,faanui,-16.4833,-151.75,81.57,73,56,17.45,PF,1675551037
71,hamilton,39.1834,-84.5333,48.15,41,0,19.57,US,1675550991
72,zalantun,48.0,122.7167,-3.95,92,5,6.33,CN,1675551232
73,busselton,-33.65,115.3333,75.33,40,77,5.82,AU,1675551233
74,airai,-8.9266,125.4092,62.24,88,98,2.37,TL,1675551233
75,laguna,38.421,-121.4238,66.09,64,100,11.5,US,1675551117
76,lebu,-37.6167,-73.65,61.41,89,59,3.06,CL,1675551233
77,hobart,-42.8794,147.3294,67.05,57,20,6.91,AU,1675551234
78,saint-philippe,-21.3585,55.7679,78.39,86,99,10.33,RE,1675551234
79,luanda,-8.8368,13.2343,80.6,78,75,8.05,AO,1675551234
80,adrar,20.5022,-10.0711,59.58,18,99,10.96,MR,1675551105
81,richland,40.7834,-82.5499,37.09,52,0,20.71,US,1675551235
82,namibe,-15.1961,12.1522,70.63,76,71,7.27,AO,1675551235
83,mackenzie,55.2999,-123.1698,34.02,100,100,6.91,CA,1675551235
84,pesaro,43.9036,12.8903,48.22,61,76,4.0,IT,1675551236
85,evensk,61.95,159.2333,-3.3,82,99,8.52,RU,1675551236
86,honiara,-9.4333,159.95,85.51,73,94,2.48,SB,1675551237
87,honningsvag,70.9821,25.9704,26.35,80,74,20.71,NO,1675551237
88,east london,-33.0153,27.9116,74.3,82,100,10.89,ZA,1675551218
89,ravar,31.2656,56.8055,48.47,50,57,3.83,IR,1675551237
90,nueva loja,0.0847,-76.8828,86.02,54,40,4.61,EC,1675551238
91,kazachinskoye,57.6953,93.2761,-5.96,100,98,1.7,RU,1675551238
92,ketchikan,55.3422,-131.6461,46.87,87,100,23.02,US,1675551238
93,chuy,-33.6971,-53.4616,65.64,93,22,12.66,UY,1675551220
94,raduzhnyy,62.0961,77.475,-1.77,99,90,6.24,RU,1675551239
95,kununurra,-15.7667,128.7333,80.58,78,100,6.91,AU,1675551239
96,flinders,-34.5833,150.8552,77.05,54,0,5.01,AU,1675551239
97,ancud,-41.8697,-73.8203,66.34,74,45,2.93,CL,1675551240
98,pontianak,-0.0333,109.3333,75.18,94,40,4.61,ID,1675551240
99,norman wells,65.282,-126.8329,-14.76,64,75,4.61,CA,1675550982
100,pustoshka,56.3355,29.369,18.45,95,95,7.61,RU,1675551241
101,nuuk,64.1835,-51.7216,-5.48,79,100,11.99,GL,1675551131
102,krasnokamensk,50.0979,118.0369,-21.23,100,91,2.71,RU,1675551241
103,jumla,29.2747,82.1838,36.25,43,0,4.45,NP,1675551242
104,vardo,70.3705,31.1107,17.58,79,40,12.66,NO,1675551175
105,qaanaaq,77.484,-69.3632,-3.41,60,70,4.59,GL,1675551242
106,mier,26.4333,-99.15,71.01,38,0,13.2,MX,1675551243
107,sao filipe,14.8961,-24.4956,71.87,63,23,14.18,CV,1675551243
108,lamballe,48.4676,-2.5144,46.81,83,100,4.68,FR,1675551243
109,roma,43.2128,-75.4557,13.82,55,100,9.22,US,1675551093
110,grimshaw,56.1834,-117.6027,17.22,86,100,2.3,CA,1675551244
111,sangar,63.9242,127.4739,-26.1,100,100,0.69,RU,1675551244
112,sioux lookout,50.1001,-91.917,6.87,72,100,0.0,CA,1675551245
113,ucluelet,48.9329,-125.5528,49.08,93,100,1.99,CA,1675550967
114,dikson,73.5069,80.5464,-2.9,97,100,3.0,RU,1675551116
115,avarua,-21.2078,-159.775,84.25,79,75,13.8,CK,1675551160
116,channel-port aux basques,47.5702,-59.1367,17.65,83,100,45.99,CA,1675551245
117,yellowknife,62.456,-114.3525,-15.45,69,75,3.44,CA,1675551020
118,boromlya,50.6184,34.9704,24.89,96,100,5.14,UA,1675551246
119,nemuro,43.3236,145.575,21.83,72,30,8.46,JP,1675551246
120,bac lieu,9.285,105.7244,75.97,83,95,15.08,VN,1675551247
121,belmonte,-15.8631,-38.8828,79.92,80,2,10.78,BR,1675551247
122,new norfolk,-42.7826,147.0587,66.7,56,10,1.99,AU,1675551248
123,sao joao da barra,-21.6403,-41.0511,80.69,90,9,14.79,BR,1675551228
124,russell,32.3502,-85.1999,60.08,33,0,5.75,US,1675550975
125,bambanglipuro,-7.95,110.2833,76.95,85,100,10.6,ID,1675551248
126,cape town,-33.9258,18.4232,70.21,90,75,5.75,ZA,1675551249
127,maltahohe,-24.8333,16.9833,79.14,24,94,18.19,NA,1675551249
128,bambous virieux,-20.3428,57.7575,79.05,89,75,6.91,MU,1675551250
129,fortuna,40.5982,-124.1573,63.36,58,75,13.8,US,1675551250
130,sayyan,15.1718,44.3244,52.29,52,34,1.52,YE,1675550982
131,nizhniy tsasuchey,50.5167,115.1333,-9.99,99,10,4.05,RU,1675551250
132,mar del plata,-38.0023,-57.5575,69.82,68,20,10.36,AR,1675551251
133,samarai,-10.6167,150.6667,82.87,74,75,6.02,PG,1675551251
134,san quintin,30.4833,-115.95,63.72,56,0,10.71,MX,1675551252
135,tuatapere,-46.1333,167.6833,64.8,99,100,1.14,NZ,1675551252
136,sorland,67.667,12.6934,39.06,95,100,39.35,NO,1675551108
137,port elizabeth,-33.918,25.5701,80.89,47,0,16.11,ZA,1675551170
138,brae,60.3964,-1.353,41.95,65,51,21.92,GB,1675551253
139,hithadhoo,-0.6,73.0833,81.54,71,83,15.59,MV,1675551237
140,kruisfontein,-34.0033,24.7314,70.41,62,64,4.79,ZA,1675551254
141,mahebourg,-20.4081,57.7,79.09,89,75,6.91,MU,1675551255
142,baruun-urt,46.6806,113.2792,-4.58,90,29,1.57,MN,1675551255
143,provideniya,64.3833,-173.3,-2.6,89,100,11.12,RU,1675550970
144,tiksi,71.6872,128.8694,-19.86,100,100,2.73,RU,1675551256
145,jamestown,42.097,-79.2353,26.19,33,0,13.8,US,1675550980
146,saskylakh,71.9167,114.0833,-30.87,98,90,3.2,RU,1675551257
147,seesen,51.9,10.1833,32.74,90,62,3.8,DE,1675551257
148,praia,14.9215,-23.5087,70.34,73,0,16.11,CV,1675551258
149,oga,46.4631,10.347,29.08,93,81,8.14,IT,1675551258
150,gizo,-8.103,156.8419,82.98,75,88,7.2,SB,1675551259
151,alice springs,-23.7,133.8833,65.75,55,1,1.14,AU,1675551259
152,los llanos de aridane,28.6585,-17.9182,58.75,69,75,8.05,ES,1675551173
153,tuktoyaktuk,69.4541,-133.0374,-43.6,66,20,3.44,CA,1675551220
154,yulara,-25.2406,130.9889,72.23,26,0,14.9,AU,1675551260
155,jackson,42.4165,-122.8345,60.93,39,0,13.8,US,1675551260
156,oriximina,-1.7656,-55.8661,76.71,87,86,3.71,BR,1675551260
157,san cristobal,7.7669,-72.225,77.18,58,38,1.83,VE,1675551261
158,pangnirtung,66.1451,-65.7125,-31.85,98,80,1.3,CA,1675550983
159,quatre cocos,-20.2078,57.7625,78.91,85,76,8.84,MU,1675551223
160,skovorodino,53.9833,123.9167,-18.56,100,97,1.34,RU,1675551261
161,romitan,39.9343,64.3814,35.55,100,100,6.91,UZ,1675551262
162,nyurba,63.2842,118.3319,-53.57,100,100,1.83,RU,1675551262
163,rizarion,40.7872,22.0839,41.41,46,78,10.0,GR,1675551264
164,ugoofaaru,5.6667,73.0,80.51,76,100,5.68,MV,1675551264
165,dzhankoy,45.7167,34.4,36.36,82,100,13.0,UA,1675551264
166,toora-khem,52.4675,96.11,-0.02,98,100,0.92,RU,1675551265
167,luderitz,-26.6481,15.1594,64.2,83,42,15.79,NA,1675551098
168,upernavik,72.7868,-56.1549,-6.56,97,100,3.11,GL,1675551072
169,geraldton,-28.7667,114.6,72.01,88,75,5.75,AU,1675551265
170,beloha,-25.1667,45.05,72.82,83,99,13.09,MG,1675551061
171,kulhudhuffushi,6.6221,73.07,80.01,78,100,4.72,MV,1675551266
172,la primavera,5.4906,-70.4092,87.08,40,67,8.21,CO,1675551266
173,esil,51.9556,66.4042,0.57,90,24,7.31,KZ,1675551266
174,namatanai,-3.6667,152.4333,80.98,78,100,3.18,PG,1675551268
175,le port,-20.9373,55.2919,78.8,81,93,4.54,RE,1675551268
176,beringovskiy,63.05,179.3167,-17.23,84,52,16.17,RU,1675550973
177,high level,58.5169,-117.136,8.71,85,100,2.3,CA,1675551269
178,george,-33.963,22.4617,69.35,88,10,6.91,ZA,1675551269
179,pogar,52.554,33.2591,24.35,97,100,4.36,RU,1675551270
180,camacha,33.0833,-16.3333,58.42,63,40,17.27,PT,1675551270
181,haines junction,60.7522,-137.5108,13.95,73,100,2.3,CA,1675551185
182,fort nelson,58.8053,-122.7002,5.95,77,75,3.0,CA,1675551270
183,metsavan,41.2016,44.2288,19.58,78,100,4.52,AM,1675551271
184,butaritari,3.0707,172.7902,81.25,80,65,18.9,KI,1675550971
185,irbil,36.1926,44.0106,46.22,71,75,14.97,IQ,1675551270
186,faya,18.3851,42.4509,50.52,61,82,0.78,SA,1675551271
187,smithers,54.7804,-127.1743,39.52,81,100,5.75,CA,1675551272
188,saint george,37.1041,-113.5841,62.44,30,0,3.44,US,1675551272
189,gat,31.61,34.7642,54.39,100,73,7.63,IL,1675551098
190,merauke,-8.4667,140.3333,77.79,88,100,6.24,ID,1675551272
191,oranjemund,-28.55,16.4333,63.93,93,26,10.13,NA,1675551082
192,pevek,69.7008,170.3133,-35.16,100,94,1.45,RU,1675551253
193,villazon,-22.0866,-65.5942,44.11,79,100,11.65,BO,1675551273
194,colac,-38.3333,143.5833,56.17,74,97,6.42,AU,1675551174
195,port-gentil,-0.7193,8.7815,80.56,89,20,2.3,GA,1675551275
196,guerrero negro,27.9769,-114.0611,67.75,41,0,11.77,MX,1675551046
197,damietta,31.4165,31.8133,55.29,71,3,11.63,EG,1675551275
198,kaitangata,-46.2817,169.8464,74.08,62,100,3.36,NZ,1675551276
199,touros,-5.1989,-35.4608,79.72,80,82,13.62,BR,1675551276
200,lom sak,16.7798,101.2422,71.49,100,40,0.0,TH,1675551277
201,yakima,46.4665,-120.6678,44.98,81,100,6.91,US,1675551277
202,viransehir,37.2353,39.7631,33.8,100,100,8.68,TR,1675551277
203,dauphin,51.1494,-100.0502,17.74,79,100,4.61,CA,1675551278
204,waipawa,-41.4122,175.5153,75.07,62,28,7.09,NZ,1675551278
205,goderich,43.7501,-81.7165,25.12,63,88,18.41,CA,1675551279
206,rawson,-43.3002,-65.1023,86.99,25,17,24.54,AR,1675550989
207,wakkanai,45.4094,141.6739,23.4,67,100,15.12,JP,1675551279
208,marsh harbour,26.5412,-77.0636,71.76,77,99,28.61,BS,1675551216
209,deputatskiy,69.3,139.9,-29.56,99,95,2.86,RU,1675551280
210,ilulissat,69.2167,-51.1,-2.18,71,73,8.05,GL,1675551228
211,moreira sales,-24.0622,-53.0069,70.16,82,17,3.49,BR,1675551280
212,souillac,-20.5167,57.5167,79.18,89,75,6.91,MU,1675551280
213,skjervoy,70.0311,20.9714,32.0,64,99,13.98,NO,1675551281
214,coquimbo,-29.9533,-71.3436,71.33,68,0,11.5,CL,1675551129
215,hambantota,6.1241,81.1185,75.38,86,51,11.01,LK,1675551281
216,saint-pierre,-21.3393,55.4781,78.48,78,20,4.61,RE,1675551282
217,isangel,-19.55,169.2667,83.52,82,66,15.66,VU,1675551038
218,tashla,51.7716,52.7427,11.3,90,100,8.79,RU,1675551282
219,seoul,37.5683,126.9778,26.04,90,40,1.14,KR,1675551039
220,puerto ayora,-0.7393,-90.3518,85.96,89,58,7.0,EC,1675551217
221,pochutla,15.7432,-96.4661,82.71,48,6,7.67,MX,1675551283
222,sitka,57.0531,-135.33,37.29,87,100,4.61,US,1675550993
223,ausa,41.9271,2.2497,52.61,64,0,1.01,ES,1675551283
224,maceio,-9.6658,-35.7353,78.24,94,20,5.75,BR,1675551283
225,dodge city,37.7528,-100.0171,54.25,34,0,13.8,US,1675551284
226,aldan,58.6031,125.3894,-14.75,100,100,2.71,RU,1675551284
227,coihaique,-45.5752,-72.0662,81.21,56,37,9.15,CL,1675551210
228,mukhen,48.1,136.1,3.83,93,96,4.9,RU,1675551285
229,kuytun,54.3419,101.5036,-1.26,99,100,1.5,RU,1675551285
230,svetlyy,54.675,20.1347,30.25,78,65,7.78,RU,1675551285
231,staryy nadym,65.6118,72.6842,9.28,97,96,7.7,RU,1675551199
232,valley station,38.1112,-85.8702,48.31,38,100,11.5,US,1675551286
233,great bend,38.3645,-98.7648,55.04,37,0,14.97,US,1675551286
234,klerksdorp,-26.8521,26.6667,66.47,65,35,6.53,ZA,1675551287
235,mount isa,-20.7333,139.5,78.57,29,84,12.66,AU,1675551206
236,broken hill,-31.95,141.4333,66.34,46,0,10.63,AU,1675551158
237,the valley,18.217,-63.0578,78.94,78,40,12.66,AI,1675551024
238,gigmoto,13.7796,124.39,77.25,88,87,14.05,PH,1675551287
239,zhigansk,66.7697,123.3711,-43.56,96,46,10.71,RU,1675551288
240,lagoa,39.05,-27.9833,59.07,88,4,18.32,PT,1675551113
241,ostrovnoy,68.0531,39.5131,13.82,84,100,12.44,RU,1675551288
242,ust-uda,54.1742,103.0304,-6.7,100,100,1.12,RU,1675551288
243,sola,-13.8833,167.55,80.65,84,100,31.9,VU,1675551289
244,matara,5.9485,80.5353,73.71,93,65,5.37,LK,1675551289
245,kamaishi,39.2667,141.8833,30.65,63,6,5.23,JP,1675551177
246,muros,42.7762,-9.0603,46.83,84,1,9.71,ES,1675551038
247,dingle,10.9995,122.6711,74.71,94,90,7.56,PH,1675551290
248,manzanillo,20.3433,-77.1167,79.86,62,62,3.31,CU,1675551290
249,bud,39.447,-86.1758,44.62,52,90,15.59,US,1675551290
250,nakhon thai,17.1006,100.8374,71.69,90,38,1.68,TH,1675551291
251,gorontalo,0.5412,123.0595,74.5,89,100,3.09,ID,1675551291
252,xingtai,37.0631,114.4942,33.08,60,15,5.84,CN,1675551292
253,obidos,-1.9175,-55.5181,73.71,95,92,3.09,BR,1675551292
254,lodwar,3.1191,35.5973,81.66,35,45,4.38,KE,1675551293
255,luwuk,-0.9516,122.7875,76.8,86,100,3.94,ID,1675551293
256,yar-sale,66.8333,70.8333,8.96,97,97,6.29,RU,1675551293
257,lata,40.1629,-8.3327,41.07,68,0,4.38,PT,1675551294
258,chokurdakh,70.6333,147.9167,-22.94,97,80,8.5,RU,1675551294
259,berlevag,70.8578,29.0864,26.6,93,56,8.05,NO,1675551295
260,semey,50.4111,80.2275,9.68,97,98,4.16,KZ,1675551295
261,port hardy,50.6996,-127.4199,46.58,93,100,28.77,CA,1675551113
262,lalmohan,22.3384,90.7419,64.42,58,98,6.8,BD,1675551295
263,mayo,38.8876,-76.5119,31.5,46,0,13.8,US,1675551296
264,clyde river,70.4692,-68.5914,-16.37,58,100,17.27,CA,1675551111
265,tirumullaivasal,11.2333,79.8333,73.81,78,2,8.19,IN,1675551297
266,svetlaya,46.5389,138.3297,9.27,66,69,6.87,RU,1675551298
267,kavaratti,10.5669,72.642,81.05,68,52,4.41,IN,1675551298
268,pisco,-13.7,-76.2167,75.25,88,0,6.91,PE,1675551298
269,anadyr,64.75,177.4833,-21.5,76,0,13.42,RU,1675551299
270,birao,10.2849,22.7882,70.57,15,61,7.0,CF,1675551299
271,walvis bay,-22.9575,14.5053,64.09,80,100,10.38,NA,1675551300
272,nanortalik,60.1432,-45.2371,23.58,84,99,16.75,GL,1675551232
273,gerede,40.8008,32.1969,17.44,92,76,5.19,TR,1675551032
274,bulgan,48.8125,103.5347,-2.0,89,84,2.89,MN,1675551300
275,joshimath,30.5667,79.5667,38.44,39,1,9.53,IN,1675551301
276,grand gaube,-20.0064,57.6608,79.2,83,97,3.0,MU,1675551301
277,aljezur,37.3191,-8.8033,50.63,66,0,5.95,PT,1675551301
278,gobabis,-22.45,18.9667,73.09,65,97,5.95,NA,1675551302
279,ankang,32.68,109.0172,40.98,57,96,3.02,CN,1675551302
280,dongsheng,39.8161,109.9776,21.36,47,65,7.63,CN,1675551303
281,xinzhou,38.4092,112.7333,26.19,37,45,3.2,CN,1675551303
282,ilebo,-4.3167,20.5833,68.05,99,91,2.64,CD,1675551304
283,san jose,37.3394,-121.895,59.99,87,75,13.8,US,1675551221
284,bani,18.2833,-70.3333,80.04,76,6,9.53,DO,1675551304
285,richards bay,-28.783,32.0377,71.29,90,14,3.29,ZA,1675551305
286,caravelas,-17.7125,-39.2481,79.63,81,25,10.69,BR,1675551297
287,aswan,24.0934,32.907,56.5,35,0,6.91,EG,1675551272
288,kiama,-34.6833,150.8667,77.25,51,0,7.0,AU,1675551307
289,zhangye,38.9342,100.4517,25.05,47,8,4.68,CN,1675551307
290,bongandanga,1.5,21.05,75.6,48,96,1.34,CD,1675551307
291,kathu,7.9178,98.3332,84.69,99,5,19.8,TH,1675551308
292,ponoka,52.6768,-113.5815,39.18,87,27,5.57,CA,1675551308
293,pocatello,42.8713,-112.4455,36.81,60,0,14.0,US,1675551309
294,angoram,-4.0625,144.0661,79.74,90,100,0.67,PG,1675551309
295,kirakira,-10.4544,161.9205,86.0,71,48,3.69,SB,1675551309
296,tiarei,-17.5333,-149.3333,87.82,77,49,17.11,PF,1675551310
297,cururupu,-1.8283,-44.8683,75.25,96,100,4.76,BR,1675551310
298,vernon,50.2581,-119.2691,43.29,77,71,3.44,CA,1675551311
299,kurilsk,45.2333,147.8833,20.62,82,99,12.86,RU,1675551311
300,naryan-mar,67.6713,53.087,0.68,98,53,6.76,RU,1675551312
301,krasnyy oktyabr,56.1167,38.8833,23.13,98,98,1.52,RU,1675551312
302,kodiak,57.79,-152.4072,33.31,75,0,0.0,US,1675551112
303,fengrun,39.8333,118.1167,27.79,47,1,1.48,CN,1675551313
304,bam,29.106,58.357,52.77,48,1,1.32,IR,1675551313
305,arraial do cabo,-22.9661,-42.0278,77.99,87,25,13.11,BR,1675551313
306,langerwehe,50.8167,6.35,46.13,89,100,3.69,DE,1675551314
307,emilio carranza,19.9711,-96.6114,68.14,70,54,7.61,MX,1675551314
308,guane,22.2025,-84.0875,75.65,74,66,5.08,CU,1675551314
309,amapa,1.0,-52.0,71.82,99,100,2.91,BR,1675551315
310,knysna,-34.0363,23.0471,71.94,77,3,6.69,ZA,1675551315
311,midyat,37.4247,41.3393,31.19,99,100,14.47,TR,1675551316
312,san patricio,28.017,-97.5169,71.55,60,35,9.08,US,1675551316
313,novovasylivka,46.8315,35.7536,30.16,79,96,6.49,UA,1675551317
314,vestmannaeyjar,63.4427,-20.2734,39.4,92,100,27.29,IS,1675551236
315,neiafu,-18.65,-173.9833,83.08,78,75,9.22,TO,1675551317
316,manaure,11.7751,-72.4445,80.82,64,46,19.55,CO,1675551317
317,hutchinson,38.0608,-97.9298,60.75,33,0,12.66,US,1675551046
318,araouane,18.9048,-3.5265,60.85,17,99,11.63,ML,1675551137
319,moron,-34.6534,-58.6198,82.29,60,0,7.43,AR,1675551318
320,naica,27.85,-105.4833,71.26,18,5,0.94,MX,1675551318
321,qaqortoq,60.7167,-46.0333,22.15,81,98,15.17,GL,1675551319
322,bone,51.9669,12.1396,30.51,81,27,4.81,DE,1675551319
323,torbay,47.6666,-52.7314,8.49,86,100,23.02,CA,1675551320
324,isaka,-3.9,32.9333,63.05,79,41,3.58,TZ,1675551320
325,christchurch,-43.5333,172.6333,85.95,49,99,19.57,NZ,1675551187
326,monrovia,6.3005,-10.7969,79.48,87,60,8.05,LR,1675551321
327,kilindoni,-7.9139,39.6668,81.55,78,100,11.99,TZ,1675551322
328,nehe,48.4833,124.8333,-13.0,100,59,5.44,CN,1675551322
329,kyren,51.6828,102.1408,1.2,90,56,1.39,RU,1675551322
330,awbari,26.5921,12.7805,51.48,29,58,9.19,LY,1675551323
331,muscat,23.6139,58.5922,69.82,67,1,3.2,OM,1675551323
332,lincoln,40.8,-96.667,48.27,60,0,12.66,US,1675551324
333,longyearbyen,78.2186,15.6401,15.64,62,0,24.16,SJ,1675551273
334,san matias,-16.3667,-58.4,76.87,87,95,4.16,BO,1675551157
335,eureka,40.8021,-124.1637,63.63,55,100,7.0,US,1675551313
336,santa cruz de tenerife,28.4682,-16.2546,59.31,90,75,5.75,ES,1675551325
337,iquitos,-3.7481,-73.2472,82.44,74,40,3.44,PE,1675551325
338,tenenkou,14.4572,-4.9169,73.31,13,49,13.29,ML,1675551295
339,tieling,42.2931,123.8414,19.04,55,20,6.44,CN,1675551326
340,hobyo,5.3505,48.5268,74.5,74,58,15.19,SO,1675551326
341,coahuayana,18.7333,-103.6833,84.07,43,0,5.79,MX,1675551326
342,buritizeiro,-17.3511,-44.9622,78.22,65,68,2.66,BR,1675551327
343,naziya,59.8,31.3833,24.44,1,77,6.2,RU,1675551327
344,vilhena,-12.7406,-60.1458,70.02,100,75,8.05,BR,1675551328
345,bucerias,20.75,-105.3333,78.98,78,75,5.88,MX,1675551328
346,nichinan,31.6,131.3667,42.48,78,90,7.07,JP,1675551329
347,kavieng,-2.5744,150.7967,83.16,71,95,4.41,PG,1675551329
348,rio grande,-32.035,-52.0986,77.11,69,0,17.09,BR,1675551329
349,gayny,60.3071,54.3241,2.34,100,100,1.5,RU,1675551330
350,chicama,-7.8447,-79.1469,70.34,63,54,7.43,PE,1675551205
351,karratha,-20.7377,116.8463,89.11,45,58,3.36,AU,1675551330
352,mayumba,-3.432,10.6554,76.55,89,90,3.58,GA,1675551286
353,bikin,46.8161,134.26,2.19,96,100,3.87,RU,1675551330
354,alakurtti,66.9672,30.3491,-4.79,99,93,2.77,RU,1675551331
355,la libertad,-2.2333,-80.9,82.06,74,20,8.05,EC,1675551331
356,meadow lake,34.8014,-106.5436,59.79,17,8,3.13,US,1675551332
357,marzuq,14.4,46.4667,62.85,65,40,1.7,YE,1675551332
358,labuhan,-6.8844,112.2051,77.25,87,100,6.22,ID,1675551332
359,sandur,15.1,76.55,70.32,59,3,6.02,IN,1675551333
360,nantucket,41.2835,-70.0995,15.94,41,0,11.5,US,1675551333
361,san angelo,31.4638,-100.437,60.58,50,0,18.41,US,1675551334
362,zapolyarnyy,69.4154,30.8136,6.08,100,67,3.04,RU,1675551334
363,sept-iles,50.2001,-66.3821,-3.95,69,75,19.57,CA,1675551080
364,jaragua,-15.7569,-49.3344,72.03,87,100,2.26,BR,1675551334
365,moranbah,-22.0016,148.0466,81.88,70,90,12.62,AU,1675551335
366,nishihara,26.1842,127.7558,61.88,88,75,11.5,JP,1675551335
367,gacko,43.1672,18.5353,19.13,83,63,19.48,BA,1675551335
368,lufilufi,-13.8745,-171.5986,80.38,78,95,16.24,WS,1675551336
369,kargopol,61.5071,38.9456,15.4,97,100,3.83,RU,1675551336
370,magadan,59.5667,150.8,-12.39,82,42,6.22,RU,1675551337
371,tres arroyos,-38.3739,-60.2798,72.86,36,0,11.63,AR,1675551337
372,ponerihouen,-21.0833,165.4,85.48,75,75,15.52,NC,1675551337
373,saint-augustin,51.226,-58.6502,11.46,80,69,26.4,CA,1675551229
374,remontnoye,46.5614,43.6501,32.86,72,100,5.23,RU,1675551338
375,kawalu,-7.3817,108.2082,71.35,89,97,2.1,ID,1675551286
376,burnie,-41.0667,145.9167,63.59,52,4,9.57,AU,1675551338
377,prince rupert,54.3161,-130.3201,46.09,91,100,29.93,CA,1675551046
378,pampa,35.5362,-100.9599,70.75,16,0,14.97,US,1675551339
379,durazno,-33.4131,-56.5006,69.93,40,0,10.49,UY,1675551168
380,banda aceh,5.5577,95.3222,76.84,85,91,6.38,ID,1675551339
381,pacific grove,36.6177,-121.9166,61.07,88,100,15.01,US,1675551104
382,pingliang,35.5392,106.6861,32.7,66,100,2.1,CN,1675551340
383,shubarshi,48.5872,57.1869,7.9,89,85,8.88,KZ,1675551340
384,beziers,43.3476,3.219,50.4,62,0,17.27,FR,1675551340
385,lazaro cardenas,17.9583,-102.2,84.29,52,0,13.02,MX,1675551341
386,saboya,5.6964,-73.7693,52.72,87,81,1.21,CO,1675551341
387,hofn,64.2539,-15.2082,32.7,63,62,7.65,IS,1675551342
388,shu,43.5983,73.7614,31.19,92,100,1.25,KZ,1675551342
389,bushehr,28.9684,50.8385,59.09,63,40,0.0,IR,1675551342
390,daru,-9.0763,143.2092,75.49,93,100,8.97,PG,1675551343
391,middletown,39.5151,-84.3983,47.48,34,0,19.57,US,1675551343
392,buraydah,26.326,43.975,54.05,35,0,11.3,SA,1675551046
393,chern,53.4523,36.9145,25.11,96,100,4.68,RU,1675551344
394,mizdah,31.4451,12.9801,47.48,65,20,7.54,LY,1675551344
395,sutesti,45.2167,27.4333,30.78,80,100,22.41,RO,1675551344
396,ocos,14.5094,-92.1933,82.62,62,0,7.83,GT,1675551345
397,gayeri,12.6497,0.4931,81.77,14,14,7.45,BF,1675551345
398,hokitika,-42.7167,170.9667,65.19,93,100,20.29,NZ,1675551346
399,nouadhibou,20.931,-17.0347,67.98,28,86,17.27,MR,1675551346
400,hualmay,-11.0964,-77.6139,73.49,78,96,7.52,PE,1675551346
401,soyo,-6.1349,12.3689,80.19,85,94,8.57,AO,1675551347
402,auki,-8.7676,160.7034,81.88,83,100,6.2,SB,1675551347
403,henties bay,-22.116,14.2845,64.2,87,97,7.49,NA,1675551348
404,prescott,34.54,-112.4685,62.71,20,0,0.0,US,1675551348
405,kysyl-syr,63.8986,122.7617,-27.8,98,100,4.09,RU,1675551348
406,bathsheba,13.2167,-59.5167,79.41,78,75,21.85,BB,1675551349
407,kasongo-lunda,-6.4667,16.8167,68.85,98,100,1.7,CD,1675551245
408,kapoeta,4.7717,33.5903,83.3,27,62,5.03,SS,1675551349
409,jyvaskyla,62.2415,25.7209,-1.86,92,0,1.14,FI,1675551350
410,opuwo,-18.0607,13.84,71.37,35,82,4.45,NA,1675551350
411,kerema,-7.9631,145.7785,78.21,86,100,8.41,PG,1675551350
412,lavrentiya,65.5833,-171.0,-11.22,94,91,6.67,RU,1675551057
413,pangai,-19.8,-174.35,80.78,73,84,27.25,TO,1675551351
414,oussouye,12.485,-16.5469,75.38,49,30,8.93,SN,1675551351
415,galle,6.0367,80.217,76.1,88,43,1.25,LK,1675551352
416,saldanha,-33.0117,17.9442,66.25,96,93,14.43,ZA,1675551352
417,kawerau,-38.1,176.7,71.38,92,96,1.01,NZ,1675551352
418,umba,66.6871,34.3429,10.17,93,84,6.24,RU,1675551353
419,ouadda,8.0777,22.4007,69.37,18,77,5.57,CF,1675551353
420,masuguru,-11.3667,38.4167,71.11,95,69,2.37,TZ,1675551354
421,cine,37.6117,28.0614,38.61,93,89,2.84,TR,1675551354
422,gambela,8.25,34.5833,80.38,29,25,3.38,ET,1675551354
423,tomatlan,19.9333,-105.25,88.03,33,4,8.59,MX,1675551355
424,fairbanks,64.8378,-147.7164,11.91,81,100,4.61,US,1675551355
425,mandalgovi,45.7625,106.2708,10.15,54,100,6.51,MN,1675551355
426,whitehorse,60.7161,-135.0538,14.02,83,75,4.61,CA,1675551356
427,baloda bazar,21.6667,82.1667,57.76,26,44,3.51,IN,1675551356
428,satana,20.5833,74.2,64.36,34,5,2.62,IN,1675551357
429,salmas,38.1973,44.7653,22.53,66,55,3.38,IR,1675551357
430,toro,4.6117,-76.0814,83.48,85,55,4.45,CO,1675551357
431,tanggu,39.0211,117.6469,26.56,60,0,6.96,CN,1675551358
432,yuancheng,36.652,107.7896,27.59,65,87,3.53,CN,1675551358
433,bassano,50.7834,-112.4685,39.69,78,31,7.65,CA,1675551358
434,sakaiminato,35.55,133.2333,33.78,93,75,1.14,JP,1675551152
435,peniche,39.3558,-9.3811,51.12,90,0,12.84,PT,1675551359
436,bulungu,-4.55,18.6,69.06,94,96,1.45,CD,1675551360
437,lamu,-2.2717,40.902,79.02,88,45,9.62,KE,1675551360
438,tra vinh,9.9347,106.3453,76.21,75,95,11.9,VN,1675551360
439,meulaboh,4.1363,96.1285,74.77,87,98,3.62,ID,1675551361
440,kupang,-10.1667,123.5833,75.78,100,100,4.61,ID,1675551361
441,qasigiannguit,68.8193,-51.1922,-1.95,99,77,5.95,GL,1675551362
442,grindavik,63.8424,-22.4338,34.27,100,100,14.97,IS,1675551149
443,tinde,-3.8833,33.2,64.27,74,34,3.36,TZ,1675551362
444,loikaw,19.6742,97.2094,60.21,80,79,2.64,MM,1675551363
445,sao jose da coroa grande,-8.8978,-35.1478,78.91,81,41,7.47,BR,1675551363
446,thinadhoo,0.5333,72.9333,79.9,72,34,11.54,MV,1675551364
447,katsuura,35.1333,140.3,44.89,66,11,14.43,JP,1675551364
448,moose factory,51.2585,-80.6094,12.2,85,100,3.44,CA,1675551365
449,sibolga,1.7427,98.7792,75.34,86,100,2.64,ID,1675551366
450,talnakh,69.4865,88.3972,9.21,95,100,7.0,RU,1675551366
451,puerto carreno,6.189,-67.4859,87.78,55,20,14.97,CO,1675551367
452,griffith,41.5284,-87.4237,42.73,61,0,17.27,US,1675551180
453,mont-de-marsan,44.0,-0.6667,46.78,94,100,2.3,FR,1675551367
454,akdepe,42.0551,59.3788,35.69,79,17,12.19,TM,1675551368
455,port macquarie,-31.4333,152.9167,77.9,56,0,2.33,AU,1675551368
456,ponta delgada,37.7333,-25.6667,57.92,82,20,6.91,PT,1675551368
457,soure,-0.7167,-48.5233,78.64,84,100,11.86,BR,1675551369
458,iwata,34.7,137.85,41.02,64,0,5.99,JP,1675551369
459,bonfim,3.0833,-59.95,82.47,60,100,6.98,BR,1675551369
460,mitsamiouli,-11.3847,43.2844,81.14,73,98,2.04,KM,1675551370
461,ponta do sol,32.6667,-17.1,63.23,59,22,9.46,PT,1675551370
462,adet,11.2644,37.4888,58.48,45,60,3.96,ET,1675551370
463,pekin,39.9075,116.3972,13.89,34,4,3.27,CN,1675551321
464,makakilo city,21.3469,-158.0858,71.44,80,100,9.22,US,1675551371
465,klaksvik,62.2266,-6.589,40.12,74,50,31.23,FO,1675551371
466,kiboga,0.9161,31.7742,70.92,34,100,1.48,UG,1675551372
467,san policarpo,12.1791,125.5072,78.76,84,100,17.58,PH,1675551372
468,lerwick,60.1545,-1.1494,42.8,68,46,21.74,GB,1675551373
469,nizhniy kuranakh,58.8353,125.4869,-14.58,100,100,1.32,RU,1675551361
470,lorengau,-2.0226,147.2712,83.95,69,100,5.66,PG,1675551373
471,olafsvik,64.8945,-23.7142,36.5,97,100,23.94,IS,1675551110
472,forestville,38.8451,-76.875,31.5,38,0,13.8,US,1675551374
473,aviemore,57.1955,-3.8259,34.48,77,8,8.12,GB,1675551374
474,portland,45.5234,-122.6762,53.1,77,100,7.0,US,1675551374
475,biggar,55.6167,-3.5167,37.29,84,23,5.46,GB,1675551375
476,khasan,42.4308,130.6434,17.24,79,65,3.18,RU,1675551375
477,gumdag,39.2061,54.5906,41.77,67,97,9.37,TM,1675551160
478,lethem,3.3803,-59.7968,81.63,64,95,10.0,GY,1675551376
479,igrim,63.1906,64.4162,3.69,98,100,3.22,RU,1675551376
480,el campo,29.1966,-96.2697,64.69,59,0,11.5,US,1675551377
481,bhadrak,21.0633,86.5054,59.86,65,63,3.91,IN,1675551377
482,bowen,-20.0167,148.2333,80.56,87,100,7.0,AU,1675551153
483,suleja,9.1758,7.1808,77.99,18,63,5.14,NG,1675551377
484,constitucion,-35.3333,-72.4167,64.06,84,26,3.94,CL,1675551378
485,cherskiy,68.75,161.3,-36.9,100,97,3.76,RU,1675551378
486,zhezkazgan,47.8043,67.7144,14.58,96,100,4.7,KZ,1675551379
487,santa isabel do rio negro,-0.4139,-65.0192,74.75,96,95,2.57,BR,1675551375
488,wawa,9.9022,4.4192,84.47,18,32,6.46,NG,1675551196
489,wahiawa,21.5028,-158.0236,69.62,79,75,0.0,US,1675551379
490,upata,8.0086,-62.3989,76.19,68,86,7.7,VE,1675551380
491,nisia floresta,-6.0911,-35.2086,81.41,81,94,9.82,BR,1675551380
492,cap malheureux,-19.9842,57.6142,77.47,83,97,3.0,MU,1675551380
493,lichinga,-13.3128,35.2406,66.29,94,75,8.05,MZ,1675551381
494,fuzhou,26.0614,119.3061,51.69,94,100,1.41,CN,1675551381
495,taoudenni,22.6783,-3.9836,59.85,37,100,12.97,ML,1675551381
496,sabzevar,36.2126,57.6819,38.91,37,61,5.68,IR,1675551382
497,margate,51.3813,1.3862,46.31,76,100,1.99,GB,1675551121
498,acapulco,16.8634,-99.8901,87.62,51,0,5.75,MX,1675551215
499,gumia,23.7833,85.8167,57.74,39,6,5.19,IN,1675551383
500,senanga,-16.1167,23.2667,69.46,88,96,5.23,ZM,1675551383
501,torrelavega,43.3494,-4.0479,50.81,78,76,1.01,ES,1675551384
502,baculin,7.4525,126.5842,76.23,81,99,5.21,PH,1675551384
503,scarborough,54.2797,-0.4044,43.16,75,82,4.0,GB,1675551384
504,minab,27.1467,57.0801,64.17,76,11,4.12,IR,1675551385
505,clearlake,38.9582,-122.6264,50.34,63,100,4.92,US,1675551385
506,dzhebariki-khaya,62.2167,135.8,-45.09,100,90,0.74,RU,1675551386
507,kendari,-3.945,122.4989,76.68,90,100,1.14,ID,1675551120
508,methoni,36.8197,21.7049,46.22,56,10,32.86,GR,1675551387
509,pa sang,18.5262,98.9394,70.0,80,25,1.16,TH,1675551388
510,sovetskiy,61.3614,63.5842,4.37,98,100,0.83,RU,1675551388
511,ranfurly,-45.1333,170.1,77.11,57,100,10.69,NZ,1675551388
512,oistins,13.0667,-59.5333,78.89,78,75,21.85,BB,1675551389
513,juneau,58.3019,-134.4197,34.21,94,100,4.61,US,1675551106
514,cockburn town,21.4612,-71.1419,78.76,69,40,13.8,TC,1675551196
515,chake chake,-5.2459,39.7666,76.87,84,100,6.13,TZ,1675551390
516,barcelona,41.3888,2.159,58.32,48,0,16.11,ES,1675551390
517,bahia honda,22.9036,-83.1592,74.59,80,50,12.19,CU,1675551390
518,vostok,46.4856,135.8833,-2.06,96,100,4.16,RU,1675551391
519,bage,-31.3314,-54.1069,78.58,31,0,11.5,BR,1675551391
520,hendek,40.7994,30.7481,36.73,82,99,2.68,TR,1675551392
521,ushibuka,32.1906,130.0228,43.72,62,8,8.77,JP,1675551392
522,turochak,52.2576,87.1224,13.17,98,100,0.4,RU,1675551392
523,cabedelo,-6.9811,-34.8339,81.27,79,58,12.01,BR,1675551173
524,teahupoo,-17.8333,-149.2667,82.36,78,69,15.17,PF,1675551393
525,roald,62.5833,6.1333,41.32,93,75,18.41,NO,1675551393
526,mikhaylovka,50.06,43.2379,23.7,96,99,7.76,RU,1675551394
527,chalchihuites,23.4833,-103.8833,70.83,21,52,8.3,MX,1675551394
528,mersing,2.4312,103.8405,76.91,94,40,8.05,MY,1675551169
529,tamworth,52.634,-1.6959,47.93,84,100,12.93,GB,1675551394
530,effingham,32.3669,-81.3332,55.35,71,5,4.88,US,1675551395
531,rockingham,42.9668,-71.0995,12.83,35,69,3.85,US,1675551395
532,bilma,18.6853,12.9164,71.33,16,27,4.99,NE,1675551395
533,manicore,-5.8092,-61.3003,78.75,89,40,2.3,BR,1675551103
534,shimoda,34.6667,138.95,43.11,62,42,11.92,JP,1675551396
535,ingham,42.6,-84.3833,32.18,65,0,5.75,US,1675551396
536,doka,13.5167,35.7667,73.83,36,100,11.07,SD,1675551396
537,tezu,27.9167,96.1667,59.38,30,25,3.85,IN,1675551397
538,antalaha,-14.9003,50.2788,74.91,88,41,4.83,MG,1675551397
539,huron,41.1501,-82.5499,36.86,56,40,18.34,US,1675551398
540,tilichiki,60.4667,166.1,-15.48,96,40,8.3,RU,1675551398
541,ust-tsilma,65.441,52.1498,-8.79,100,95,3.06,RU,1675551158
542,cam ranh,11.9214,109.1591,73.36,83,20,5.75,VN,1675551399
543,la ronge,55.1001,-105.2842,12.45,73,100,1.14,CA,1675551399
